stop_id,ligne,stop_name,stop_desc,stop_lat,stop_lon
10ABR1,2,CITE DE LA MER-A. BRIAND,,49.641277,-1.615887
10ABR2,2,CITE DE LA MER-A. BRIAND,,49.641623,-1.615923
10AGO1,3,AGORA,,49.643461,-1.66186
10AGO2,3,AGORA,,49.643535,-1.661884
10AIG1,1,LES AIGUILLONS,,49.637161,-1.639246
10AIG2,1,LES AIGUILLONS,,49.637042,-1.639261
10ALB1,4,ALBERT THOMAS,,49.657269,-1.688802
10ALB2,4,ALBERT THOMAS,,49.657425,-1.688841
10AMF1,4,AMFREVILLE,,49.659867,-1.715298
10AMF2,4,AMFREVILLE,,49.659774,-1.715258
10AMO1,1-6,AMONT QUENTIN,,49.629462,-1.623031
10AMO2,1-6,AMONT QUENTIN,,49.629303,-1.623242
10ANJ3,1-6,ANJOU,,49.626785,-1.634717
10ANJ4,1-6,ANJOU,,49.626886,-1.634828
10ANN1,5,STE ANNE,,49.656985,-1.661723
10ANN2,5,STE ANNE,,49.656988,-1.661317
10ARA1,3-4,ARAGO,,49.654061,-1.666152
10ARA2,3-4,ARAGO,,49.653912,-1.665265
10ARS1,3-4-5,ARSENAL,,49.644393,-1.633688
10ARS2,3-4-5,ARSENAL,,49.644598,-1.631355
10ART1,5,ARTISANS,,49.636855,-1.588185
10ART2,5,ARTISANS,,49.636553,-1.588929
10BAG1,3,BAGATELLE,,49.640751,-1.596295
10BAG2,3,BAGATELLE,,49.640817,-1.596334
10BAR1,0,BARBUSSE,,49.621809,-1.648498
10BAY1,1,BAYET,,49.631205,-1.646375
10BAY2,1,BAYET,,49.631311,-1.646424
10BCP1,2,BEAUCHAMP,,49.6226,-1.65226
10BCP2,2,BEAUCHAMP,,49.622866,-1.652149
10BDB1,0,BRECHE DU BOIS,,49.629243,-1.595828
10BDB2,0,BRECHE DU BOIS,,49.629416,-1.596010
10BEL1,3,BELGIQUE,,49.647303,-1.656072
10BEL2,3,BELGIQUE,,49.647347,-1.656289
10BHC2,5-6,BREMERHAVEN CENTRE,,49.631181,-1.607075
10BHC3,5-6,BREMERHAVEN CENTRE,,49.630826,-1.605532
10BHE1,3,LES BRECHES,,49.649615,-1.660824
10BHE2,3,LES BRECHES,,49.649675,-1.660611
10BHH1,5-6,BREMERHAVEN HAUT,,49.631182,-1.603592
10BHH2,5-6,BREMERHAVEN HAUT,,49.630978,-1.604376
10BLE1,4,BLERIOT,,49.616023,-1.600522
10BLE2,4,BLERIOT,,49.616212,-1.600670
10BOC1,4,LE BOCAGE,,49.602352,-1.604478
10BOC2,4,LE BOCAGE,,49.602799,-1.605189
10BOI1,4,LE BOIS,,49.657850,-1.702690
10BON1,3-4,LA BONDE,,49.654180,-1.672330
10BON2,3-4,LA BONDE,,49.654212,-1.672525
10BOS1,4,BOSQUET DU ROULE,,49.628693,-1.618291
10BOS2,4,BOSQUET DU ROULE,,49.629050,-1.618029
10BQC1,0,BREQUECAL,,49.632722,-1.565546
10BQC2,0,BREQUECAL,,49.632819,-1.565572
10BQH1,0,LE BECQUET DE HAUT,,49.652364,-1.554243
10BQH2,0,LE BECQUET DE HAUT,,49.652303,-1.554521
10BQR1,1-6,BECQUEREL,,49.628227,-1.639505
10BQR2,1-6,BECQUEREL,,49.628380,-1.639522
10BRA1,1-6,BRANLY,,49.630256,-1.643974
10BRA2,1-6,BRANLY,,49.629893,-1.642759
10BRO1,5-6,BROSSOLETTE,,49.633272,-1.592081
10BRO2,5-6,BROSSOLETTE,,49.633651,-1.592049
10BRT1,3-4,BRECOURT,,49.653803,-1.674378
10BRT2,3-4,BRECOURT,,49.653738,-1.674934
10BRU1,0,LES BRULINS,,49.617285,-1.581187
10BRU2,0,LES BRULINS,,49.617398,-1.581062
10BSJ1,4,BEAUSEJOUR,,49.618743,-1.609504
10BSJ2,4,BEAUSEJOUR,,49.618906,-1.609586
10CAM2,0,CAMUS,,49.618830,-1.652375
10CAP1,5,CAPEL,,49.657050,-1.666154
10CAP2,5,CAPEL,,49.657103,-1.666234
10CAR1,4,CARNE,,49.653936,-1.681223
10CAR2,4,CARNE,,49.653924,-1.681881
10CBL1,0,CABLES,,49.610064,-1.579719
10CBL2,0,CABLES,,49.610192,-1.579740
10CCI1,2,C.C.I. MULTIPLEXE,,49.642459,-1.611142
10CCI2,2,C.C.I. MULTIPLEXE,,49.642506,-1.611331
10CDB1,0,CITE DES BRUYERES,,49.666636,-1.703374
10CDF1,2,CHEMIN DES FOSSES,,49.620970,-1.655827
10CDF2,2,CHEMIN DES FOSSES,,49.620956,-1.656147
10CDL1,0,CITE DESLANDES,,49.630118,-1.599073
10CDL2,0,CITE DESLANDES,,49.630238,-1.599428
10CDT2,0,CITE DU TOT,,49.641818,-1.657544
10CEN1,4,CENTRE COMMERCIAL,,49.603331,-1.602503
10CEN2,4,CENTRE COMMERCIAL,,49.603692,-1.602892
10CEZ1,4,H. CORNAT,,49.616108,-1.602534
10CEZ2,4,H. CORNAT,,49.616043,-1.602767
10CHE1,6,CHENES,,49.630972,-1.584202
10CHE2,6,CHENES,,49.631025,-1.584248
10CHVE,0,RUE DE LA CHASSE VERTE,,49.631370,-1.602687
10CIM1,2,CIMETIERE,,49.635580,-1.636351
10CIM2,2,CIMETIERE,,49.635496,-1.636384
10CLO1,2,CLAIR LOGIS,,49.646664,-1.590879
10CLO2,2,CLAIR LOGIS,,49.646835,-1.590860
10CMI1,5,CHASSE MITAIS,,49.654820,-1.655980
10CMI2,5,CHASSE MITAIS,,49.654710,-1.655777
10COD1,0,COLLEGE DIDEROT,,49.646679,-1.580558
10COD2,0,COLLEGE DIDEROT,,49.647278,-1.579094
10COF1,4,COLLEGE FERRY,,49.659154,-1.691640
10COF2,4,COLLEGE FERRY,,49.659539,-1.692038
10COS1,2-5,COSEC,,49.647234,-1.577807
10COS2,2-5,COSEC,,49.646968,-1.577655
10COT1,2,COTEAUX,,49.624585,-1.648510
10COT2,2,COTEAUX,,49.624321,-1.646946
10CPL1,3-4,LES COUPLETS,,49.651136,-1.660676
10CPL2,3-4,LES COUPLETS,,49.651545,-1.660505
10CRB1,4,COURBET,,49.649023,-1.658456
10CRB2,4,COURBET,,49.649491,-1.658191
10CRC1,4,CHARCOT,,49.642784,-1.644391
10CRC2,4,CHARCOT,,49.642924,-1.644225
10CRD1,2,CHARDINE,,49.648521,-1.571377
10CRD2,2,CHARDINE,,49.648592,-1.571472
10CSM1,4,CHAPELLE ST MICHEL,,49.612698,-1.600253
10CSM2,4,CHAPELLE ST MICHEL,,49.612653,-1.600216
10CTR1,3-4-5,CHANTIER,,49.643397,-1.629129
10CTR2,3-4-5,CHANTIER - ARSENAL,,49.643981,-1.631538
10CUR1,4,CURIE,,49.607985,-1.607264
10CUR2,4,CURIE,,49.607943,-1.607132
10CVE1,5,LES COLS VERTS,,49.644603,-1.575757
10CVE2,5,LES COLS VERTS,,49.644348,-1.575672
10DAN1,0,DANTON,,49.647027,-1.665896
10DAN2,0,DANTON,,49.647081,-1.666131
10DEB1,4,DEBUSSY,,49.608650,-1.601557
10DEB2,4,DEBUSSY,,49.608587,-1.601670
10DEB3,0,DEBUSSY,,49.609278,-1.599877
10DIG1,2,DIGARD,,49.621512,-1.660851
10DIX1,5,DIXMUDE,,49.663641,-1.685011
10DIX2,5,DIXMUDE,,49.664099,-1.685286
10DUB1,3,DUBOST,,49.644094,-1.669218
10DUB2,3,DUBOST,,49.644265,-1.669248
10ECT1,3,EGLANTINE CHATEAU,,49.634437,-1.566828
10EGL1,1-4-6,EGLISE,,49.627418,-1.625432
10EGL2,1-4-6,EGLISE,,49.627380,-1.625663
10EGL5,1-4-6,EGLISE,,49.645831,-1.650336
10EGL6,1-4-6,EGLISE,,49.645549,-1.651189
10ELE1,2-3,ELEIS-J.HEBERT,,49.635392,-1.616950
10ELE2,2-3,ELEIS-J.HEBERT,,49.635406,-1.617086
10EPB1,5,EPINAY BAS,,49.664642,-1.688086
10EPB2,5,EPINAY BAS,,49.664722,-1.688019
10EPC2,5,EPINAY CENTRE,,49.663936,-1.692041
10EPH1,4-5,EPINAY HAUT,,49.662970,-1.696074
10EPH2,4-5,EPINAY HAUT,,49.663008,-1.696936
10EUR1,2,EUROPE,,49.645591,-1.583719
10EUR2,2,EUROPE,,49.645581,-1.583934
10FDC1,3-4-5,F. DES CAVELIERS,,49.640650,-1.628288
10FJT1,2,FJT,,49.636603,-1.634355
10FJT2,2,FJT,,49.636624,-1.634229
10FLO1,3,LES FLOTTES,,49.636702,-1.570878
10FLO2,3,LES FLOTTES,,49.636040,-1.570311
10FOE1,6,FOEDRE,,49.628031,-1.653762
10FOE2,6,FOEDRE,,49.628109,-1.653811
10FON1,3,FONDERIE,,49.642264,-1.584322
10FON2,3,FONDERIE,,49.642307,-1.583965
10FOR1,1,LES FOURCHES,,49.640250,-1.645726
10FRA1,4,FRACHON,,49.638981,-1.653651
10FRA2,4,FRACHON,,49.638852,-1.653525
10FRN1,4,LES FRENES,,49.657700,-1.699145
10FRY1,0,FERRY,,49.651618,-1.679548
10FRY2,0,FERRY,,49.651612,-1.679754
10GDM1,0,GENDARMERIE,,49.619588,-1.596932
10GDM2,0,GENDARMERIE,,49.619643,-1.596633
10GDR1,3,GRANDE RUE,,49.640637,-1.575533
10GDR2,3,GRANDE RUE,,49.640552,-1.574706
10GLA1,0,HAMEAU QUEVILLON,,49.625395,-1.587057
10GLA2,0,HAMEAU QUEVILLON,,49.625196,-1.587123
10GMA1,2,GARE MARITIME,,49.643572,-1.601861
10GMA2,2,GARE MARITIME,,49.643602,-1.602134
10GNT1,4,GENETS,,49.604065,-1.608557
10GNT2,4,GENETS,,49.603725,-1.607615
10GRI1,6,GRIMESNIL,,49.628930,-1.656171
10GRI2,6,GRIMESNIL,,49.628924,-1.655976
10GRR1,3,GUERRANDERIE,,49.639728,-1.602181
10GRR2,3,GUERRANDERIE,,49.639866,-1.601847
10GSN1,4-5-6,GARE SNCF,,49.633631,-1.620414
10GSN2,4-5-6,GARE SNCF,,49.633928,-1.621571
10GUE1,0,GUEROULT,,49.662291,-1.712036
10HAI1,0,HAINNEVILLE HAUT,,49.653081,-1.677046
10HAI2,0,HAINNEVILLE HAUT,,49.653267,-1.676916
10HAM1,0,HAMEAU VIGOT,,49.622335,-1.584465
10HAM2,0,HAMEAU VIGOT,,49.622339,-1.584700
10HAP1,0,LA HAPPE,,49.643978,-1.547857
10HAP2,0,LA HAPPE,,49.644020,-1.547926
10HBU1,0,HAMEAU BURNEL,,49.644755,-1.542759
10HBU2,0,HAMEAU BURNEL,,49.644766,-1.543083
10HDI1,3-5,HOTEL DES IMPOTS,,49.646796,-1.644247
10HDI2,3-5,HOTEL DES IMPOTS,,49.646839,-1.643979
10HDV1,3-4,HOTEL DE VILLE,,49.642620,-1.625067
10HET2,4,LESHETRES,,49.658626,-1.702256
10HGA1,0,HAMEAU GARCONNET,,49.645053,-1.535846
10HGA2,0,HAMEAU GARCONNET,,49.645099,-1.536014
10HLU1,0,HAMEAU DE LUCE,,49.612596,-1.562750
10HLU2,0,HAMEAU DE LUCE,,49.612122,-1.562682
10HMA1,3-5,HOPITAL MARITIME,,49.645690,-1.639339
10HMA2,3-5,HOPITAL MARITIME,,49.645772,-1.638566
10HME1,5,HAMEAU DE LA MER,,49.658160,-1.676921
10HME2,5,HAMEAU DE LA MER,,49.658057,-1.676656
10HOM1,3,HOMET,,49.644542,-1.658549
10HOM2,3,HOMET,,49.644598,-1.658749
10HOU1,4,HOULGATTE,,49.654163,-1.677713
10HOU2,4,HOULGATTE,,49.654234,-1.677774
10HPA1,3,HOPITAL PASTEUR,,49.638447,-1.611949
10HPA2,3,HOPITAL PASTEUR,,49.638608,-1.613242
10HPH1,0,HAMEAU PHARES,,49.637121,-1.545407
10HPH2,0,HAMEAU PHARES,,49.637308,-1.545484
10HQU1,0,HAMEAU QUEVASTRE,,49.621263,-1.578221
10HQU2,0,HAMEAU QUEVASTRE,,49.621212,-1.578425
10HTR1,0,HAMEAU TRUFFERT,,49.616958,-1.569172
10HTR2,0,HAMEAU TRUFFERT,,49.616954,-1.569322
10HUI1,3-4,HUIT MAI,,49.649067,-1.653021
10HUI2,3-4,HUIT MAI,,49.648434,-1.653579
10HUI3,3-4,HUIT MAI,,49.648612,-1.652603
10HUI4,3-4,HUIT MAI,,49.649394,-1.654305
10ILO1,2,L'ILOT Z ENFANTS,,49.644471,-1.588029
10ILO2,2,L'ILOT Z ENFANTS,,49.644610,-1.587773
10ING1,0,INGENIEUR BERTIN,,49.612998,-1.581231
10ING2,0,INGENIEUR BERTIN,,49.612770,-1.581173
10IUT1,1,IUT,,49.635246,-1.646066
10IUT2,1,IUT,,49.635281,-1.645925
10JAR1,4,JARDIN PUBLIC,,49.631976,-1.617671
10JAR2,4,JARDIN PUBLIC,,49.631947,-1.617545
10JAU1,0,JAURES,,49.647883,-1.683715
10JAU2,0,JAURES,,49.647983,-1.683641
10JBO3,6,JEAN BOUIN,,49.633437,-1.586200
10JBO4,6,JEAN BOUIN,,49.633290,-1.585973
10JEA1,5,JEAN ZAY,,49.639520,-1.583026
10JEA2,5,JEAN ZAY,,49.639171,-1.583841
10JGO2,5,JEAN GOUBERT,,49.649027,-1.585065
10JJR1,1-6,JEAN JAURES,,49.633594,-1.622474
10JMO1,5-6,JEAN MOULIN,,49.633796,-1.596932
10JMO2,5-6,JEAN MOULIN,,49.633765,-1.597161
10JMS1,5-6,JEAN MOULIN,,49.656885,-1.674231
10JMS2,5-6,JEAN MOULIN,,49.656836,-1.674354
10LAV1,3,LES LAVANDES,,49.643525,-1.664888
10LAV2,3,LES LAVANDES,,49.643571,-1.664726
10LCA1,5-6,LECARPENTIER,,49.631744,-1.610231
10LCO1,1-4,LE CONQUERANT,,49.639781,-1.639735
10LCO2,1-4,LE CONQUERANT,,49.639932,-1.639760
10LCP2,5-6,LECARPENTIER,,49.631839,-1.610450
10LE 1,0,LE TOT,,49.641422,-1.660363
10LEB1,4,LEBAS,,49.642497,-1.647103
10LEB2,4,LEBAS,,49.642355,-1.647329
10LEC1,4,LECRES,,49.639283,-1.651304
10LEC2,4,LECRES,,49.638985,-1.652146
10LEO1,0,LEO LAGRANGE,,49.646803,-1.681101
10LEO2,0,LEO LAGRANGE,,49.646824,-1.681254
10LLM1,5-6,LA LONGUE MARE,,49.634582,-1.593507
10LLM2,5-6,LA LONGUE MARE,,49.634605,-1.593726
10LMA1,0,LA MARCHE,,49.666568,-1.700993
10LMQ1,2,LEMARESQUIER,,49.648621,-1.575071
10LMQ2,2,LEMARESQUIER,,49.648707,-1.575155
10LMW1,2,ZONE EMR,,49.650831,-1.595914
10LNO1,5,LA NOE,,49.640551,-1.581049
10LNO2,5,LA NOE,,49.640646,-1.581724
10LOG1,4,LA LOGE,,49.608457,-1.615567
10LOG2,4,LA LOGE,,49.608497,-1.615502
10LON1,3,LONGUES PIERRES,,49.649022,-1.664715
10LON2,3,LONGUES PIERRES,,49.649119,-1.663851
10LOU2,0,LOUP PENDU,,49.616409,-1.655712
10LPL1,3,LA PLACE,,49.639862,-1.571333
10LPL2,3,LA PLACE,,49.640006,-1.571764
10LUM1,5-6,LUMIERE,,49.632541,-1.598972
10LUM2,5-6,LUMIERE,,49.632470,-1.599233
10LYS1,0,LYCEE SAUXMARAIS,,49.638267,-1.591631
10MAG1,0,LA GLACERIE MAIRIE,,49.614008,-1.602831
10MAG2,0,LA GLACERIE MAIRIE,,49.614143,-1.603318
10MAX1,4-5,QUERQUEVILLE MAIRIE,,49.661809,-1.696831
10MAX3,4-5,QUERQUEVILLE MAIRIE,,49.662016,-1.695860
10MED1,3,MEDERIC,,49.641752,-1.590429
10MED2,3,MEDERIC,,49.641992,-1.589483
10MEN1,1-2,MENDES-FRANCE,,49.634046,-1.623121
10MEN2,1-2,MENDES FRANCE,,49.634589,-1.626762
10MES1,4,MESSENT,,49.657288,-1.708580
10MES2,4,MESSENT,,49.657676,-1.709411
10MEZ1,0,MEZINE,,49.617582,-1.574144
10MEZ2,0,MEZINE,,49.617300,-1.573998
10MGT1,5,LES MARGUERITES,,49.643941,-1.580060
10MGT2,5,LES MARGUERITES,,49.644030,-1.580403
10MIL1,1,MILLET,,49.640029,-1.642385
10MIL2,1,MILLET,,49.640223,-1.642847
10MIL3,0,LYCEE MILLET,,49.639816,-1.642318
10MLL1,2,LES MIELLES,,49.645184,-1.597006
10MLL2,2,LES MIELLES,,49.645238,-1.597022
10MME1,0,LA MER,,49.666060,-1.698489
10MOR1,4,LES MOURETS,,49.657346,-1.705447
10MOR2,4,LES MOURETS,,49.657359,-1.705582
10MOT1,0,LA MOTTERIE,,49.622158,-1.602792
10MOT2,0,LA MOTTERIE,,49.622185,-1.602916
10MRT1,6,MAISON DE RETRAITE,,49.628673,-1.648565
10MRT2,6,MAISON DE RETRAITE,,49.628656,-1.648824
10MTF1,0,MONT FAUCON,,49.663911,-1.699796
10MTT1,4,MONTMARTRE,,49.617788,-1.607130
10MTT2,4,MONTMARTRE,,49.617877,-1.607151
10MXR1,4,LA GLACERIE MARETTES,,49.605870,-1.598971
10MXR2,4,LA GLACERIE MARETTES,,49.605884,-1.599251
10MYO1,5,LES MYOSOTIS,,49.643101,-1.580585
10MYO2,5,LES MYOSOTIS,,49.642844,-1.580618
10NMD1,4,NORMANDIE,,49.615982,-1.598907
10NMD2,4,NORMANDIE,,49.616158,-1.598764
10NOR1,3,NORTHEIM,,49.641329,-1.579244
10NOR2,3,NORTHEIM,,49.641393,-1.579122
10NQT1,0,LE BECQUET,,49.653031,-1.551208
10NQT2,0,LE BECQUET,,49.653071,-1.551307
10ODR1,4,OCTROI DU ROULE,,49.624966,-1.616645
10ODR2,4,OCTROI DU ROULE,,49.626408,-1.617231
10OLY1,1-6,OLYMPE DE GOUGES,,49.626170,-1.628770
10OYG2,1-6,OLYMPE DE GOUGES,,49.626254,-1.628962
10PAU2,4,PAUL BERT,,49.660762,-1.697366
10PAX1,5,LA PAIX,,49.652684,-1.653713
10PAX2,5,LA PAIX,,49.653173,-1.654152
10PET1,5,PETITE AUBERGE,,49.660356,-1.679803
10PET2,5,PETITE AUBERGE,,49.660882,-1.680346
10PFJ1,2,PLACE DES JUSTES,,49.624719,-1.645211
10PFJ2,2,PLACE DES JUSTES,,49.624527,-1.645509
10PHG2,3-4-5,PL. GREVILLE,,49.638612,-1.627880
10PIE1,0,PIERRE CARDRON,,49.665782,-1.701652
10PIS1,2,COLLIGNON,,49.653971,-1.563555
10PL 1,3-4,PL. DE LA FONTAINE,,49.640265,-1.626008
10PL2,3-4,PL. DE LA FONTAINE,,49.639801,-1.625587
10PLA1,2-3,PLACE RAVENEL,,49.638734,-1.615806
10PLA2,2-3,PLACE RAVENEL,,49.638204,-1.616610
10POL1,4,LA POLLE,,49.641220,-1.642917
10POL2,4,LA POLLE,,49.641076,-1.642367
10PON1,0,PONT DE LA BONDE,,49.645612,-1.674167
10PON2,0,PONT DE LA BONDE,,49.646039,-1.674210
10PRE1,3-4,PREVERT,,49.652989,-1.662340
10PRE2,3-4,PREVERT,,49.653119,-1.662506
10PYC1,6,POLYCLINIQUE,,49.635821,-1.656471
10QUCO,0,QUAI COLLINS,,49.639958,-1.618360
10RED1,2,REDOUTE,,49.633935,-1.636170
10RED2,2,REDOUTE,,49.633676,-1.636554
10REN1,4,RENARDIERES,,49.608135,-1.611438
10REN2,4,RENARDIERES,,49.608058,-1.611014
10REP1,3-5,REPUBLIQUE,,49.648108,-1.648946
10REP2,3-5,REPUBLIQUE,,49.648143,-1.648821
10ROG1,0,ROGER GLINEL,,49.664930,-1.696678
10ROG2,0,ROGER GLINEL,,49.664919,-1.696156
10ROS1,2,ROSSEL,,49.628405,-1.641578
10ROS2,2,ROSSEL,,49.628060,-1.642061
10RSX1,5,LES ROSEAUX,,49.643622,-1.576493
10RSX2,5,LES ROSEAUX,,49.643719,-1.576961
10RUC1,4,LA RUCHE,,49.620006,-1.611281
10RUC2,4,LA RUCHE,,49.620016,-1.611405
10SAD1,2,SADI CARNOT,,49.629592,-1.640443
10SAD2,2,SADI CARNOT,,49.629520,-1.640624
10SAL1,2,SALENGRO,,49.626571,-1.643371
10SAL2,2,SALENGRO,,49.626168,-1.643916
10SEX1,4,ST EXUPERY,,49.616202,-1.605539
10SEX2,4,ST EXUPERY,,49.616042,-1.605189
10SFG1,4,STADE FERNAGU,,49.661423,-1.694017
10SFG2,4,STADE FERNAGU,,49.661509,-1.693967
10SFN1,4,SCHAFFNER,,49.655054,-1.686400
10SFN2,4,SCHAFFNER,,49.655468,-1.686791
10SHU1,1,SCHUMAN-DELAVILLE,,49.635718,-1.624013
10SHU2,3-4-5,SCHUMAN,,49.636858,-1.625749
10SHU3,3-4-5,SCHUMAN,,49.637085,-1.625517
10SHU7,1,SCHUMAN-DELAVILLE,,49.635685,-1.625753
10SMT1,0,SCHMITT,,49.642089,-1.652889
10SMT2,0,SCHMITT,,49.642215,-1.652841
10SRF1,5,SURCOUF,,49.657002,-1.673745
10SRN1,4,LE STADE RN13,,49.623417,-1.613582
10STA1,4,LE STADE,,49.642412,-1.636875
10STA2,4,LE STADE,,49.641604,-1.637064
10SWZ1,4,SCHWEITZER,,49.616332,-1.596618
10SWZ2,4,SCHWEITZER,,49.615330,-1.596393
10TFL1,5,FLAMANDS,,49.650739,-1.583320
10THH1,5-6,THEMIS HOPITAL,,49.634561,-1.615577
10THH2,5-6,THEMIS HOPITAL,,49.634667,-1.615370
10TLL2,4,LES TILLEULS,,49.658747,-1.698833
10TNE1,0,TOT NEUF,,49.643061,-1.655182
10TRA1,3-5,TERRASSES,,49.649671,-1.650552
10TRA3,3-5,TERRASSES,,49.650816,-1.651605
10TRA6,3-5,TERRASSES,,49.649765,-1.650480
10TRE1,0,TREPIN,,49.650289,-1.683021
10TRE2,0,TREPIN,,49.650337,-1.683102
10UNI1,1,UNIVERSITE,,49.635989,-1.643337
10UNI2,1,UNIVERSITE,,49.635762,-1.643416
10VAB1,4,VAL L'ABBE,,49.643104,-1.651557
10VAB2,4,VAL L'ABBE,,49.643118,-1.651418
10VCA1,0,VAL CANU,,49.638750,-1.545661
10VCA2,0,VAL CANU,,49.638352,-1.545440
10VCA3,0,VAL CANU,,49.638353,-1.544687
10VCA4,0,VAL CANU,,49.638595,-1.543888
10VDT1,6,VINDITS,,49.634494,-1.653700
10VDT2,6,VINDITS,,49.634542,-1.652517
10VER1,0,VERRERIE,,49.607373,-1.571698
10VER2,0,VERRERIE,,49.607374,-1.572453
10VGN1,0,VIGNIERES,,49.663346,-1.701923
10VIG1,0,VIGNY,,49.647874,-1.660694
10VIG2,0,VIGNY,,49.647771,-1.660991
10VOL1,2,VOLTAIRE,,49.631539,-1.638537
10VOL2,2,VOLTAIRE,,49.631626,-1.638546
10VTO1,0,VIEUX TOT,,49.643606,-1.658291
10VTO2,0,VIEUX TOT,,49.643747,-1.657940
10XCT1,3,OCTROI,,49.638969,-1.606605
10XCT2,3,OCTROI,,49.639116,-1.606157
10ZCT1,0,TOLLEVAST ZA,,49.597402,-1.601623
10ZFO1,6,ZA LES FOURCHES,,49.631646,-1.655769
10ZFO2,6,ZA LES FOURCHES,,49.631726,-1.655823
10ZOL1,3,ZOLA,,49.647335,-1.668946
10ZOL2,3,ZOLA,,49.647611,-1.668529
10ZPH1,5,DEPOT CAP COTENTIN,,49.637883,-1.586362
10ZPH2,5,DEPOT CAP COTENTIN,,49.637912,-1.586440
10ZSA3,6,SAUXMARAIS,,49.634948,-1.583380
10ZSA4,6,SAUXMARAIS,,49.634910,-1.583517
ANNPC1,0,ANNEVILLE EN SAIRE PLACE CENTRALE,,49.635312,-1.286064
ANNPC2,0,ANNEVILLE EN SAIRE PLACE CENTRALE,,49.635223,-1.286199
BARMA1,0,BARFLEUR MAIRIE,,49.669252,-1.266387
BARMA2,0,BARFLEUR Mairie,,49.668724,-1.267679
BARPL2,0,BARNEVILLE CARTERET Plage-Pole Jeunesse,,49.369552,-1.767106
BARVAL,0,BARNEVILLE CARTERET Le Valnotte,,49.380619,-1.781630
BCQANG,0,BRICQUEBEC EN COTENTIN Ancienne Gare,,49.471346,-1.639203
BCQBG1,0,QUETTETOT Le Bourg,,49.487822,-1.666844
BCQBG2,0,QUETTETOT Le Bourg,,49.487838,-1.667117
BCQCOL,0,BRICQUEBEC EN COTENTIN College,,49.468732,-1.631194
BENBG1,0,BENOITVILLE Le Bourg,,49.526397,-1.781873
BENBG2,0,BENOITVILLE Le Bourg,,49.526299,-1.782130
BENCG1,0,BENOITVILLE La Croix Georges,,49.534862,-1.774913
BENCG2,0,BENOITVILLE La Croix Georges,,49.535114,-1.775234
BERCRB,0,BERTEAUVILLE La Croix de Berteauville,,49.600359,-1.398430
BIVCF1,0,BIVILLE La Croix Frimot,,49.615318,-1.795507
BIVCF2,0,BIVILLE La Croix Frimot,,49.615262,-1.794243
BIVEC1,0,BIVILLE Ecole,,49.613390,-1.819988
BIVEC2,0,BIVILLE Ecole,,49.613346,-1.819943
BIVHB1,0,BIVILLE Haut de Biville,,49.621811,-1.803647
BIVHB2,0,BIVILLE Haut de Biville,,49.621706,-1.803583
BIVHD1,0,BIVILLE Hameau David,,49.617557,-1.811261
BIVHD2,0,BIVILLE Hameau David,,49.617544,-1.811384
BIVHM1,0,BIVILLE Hameau Moulin,,49.613269,-1.811742
BIVHM2,0,BIVILLE Hameau Moulin,,49.613248,-1.811810
BNVMA1,0,BARNEVILLE CARTERET Mairie,,49.382523,-1.755630
BNVMA2,0,BARNEVILLE CARTERET Mairie,,49.382436,-1.755664
BREPG1,0,BRETTEVILLE La Plage,,49.657234,-1.519553
BREPG2,0,BRETTEVILLE La Plage,,49.657161,-1.519505
BRESG1,0,BRETTEVILLE Saint Germain,,49.654585,-1.530023
BRESG2,0,BRETTEVILLE Saint Germain,,49.654595,-1.529705
BRIPN1,0,BRICQUEBOSQ Pont de Neuville,,49.537033,-1.717367
BRIPN2,0,BRICQUEBOSQ Pont de Neuville,,49.537017,-1.717836
BRXBP1,0,BRIX Beau Parle,,49.563376,-1.589737
BRXBP2,0,BRIX Beau Parle,,49.563663,-1.589862
BRXSTA,0,BRIX Le Stade,,49.548247,-1.58164
CANBOU,0,CANTELOUP Le Bourg,,49.645327,-1.352349
CLIEGL,0,CLITOURPS Eglise,,49.656842,-1.373872
COLFR1,0,COLOMBY Foyer Rural,,49.455819,-1.492727
COLFR2,0,COLOMBY Foyer Rural,,49.455834,-1.492811
VALGS1,2-3,VALOGNES Gare SNCF,,49.505101,-1.479317
VALGS2,2-3,VALOGNES Gare SNCF,,49.505393,-1.478708
VALHO1,0,VALOGNES Hopital,,49.503422,-1.464169
VALHO2,0,VALOGNES Hopital,,49.503499,-1.464370
VALZA1,0,VALOGNES ZA Armanville,,49.511997,-1.497304
VALZA2,0,VALOGNES ZA Armanville,,49.511926,-1.497541
SPEPC1,0,SAINT PIERRE EGLISE Place Centrale,,49.668442,-1.404438
SPEPC2,0,SAINT PIERRE EGLISE Place Centrale,,49.668285,-1.404437
SSVCOL,0,SAINT SAUVEUR LE VICOMTE College,,49.390700,-1.532834
SSVMA1,0,SAINT SAUVEUR LE VICOMTE Mairie,,49.387060,-1.529666
SSVMA2,0,SAINT SAUVEUR LE VICOMTE Mairie,,49.386890,-1.529350
SURGIT,0,SURTAINVILLE Les Gites,,49.462152,-1.827203
SURPKE,0,SURTAINVILLE Parking Ecoles,,49.454059,-1.809918
SVPBI1,0,SAINT VAAST LA HOUGUE Place Belle Isle,,49.588989,-1.266113
SVPBI2,0,SAINT VAAST LA HOUGUE Place Belle Isle,,49.589009,-1.266249
TEBBOU,0,TEURTHEVILLE BOCAGE Le Bourg,,49.590601,-1.398795
THEEG1,0,THEVILLE Eglise,,49.653205,-1.423226
THEEG2,0,THEVILLE Mairie,,49.651115,-1.421036
TOCEGL,0,TOCQUEVILLE Place de l'Eglise,,49.670526,-1.335822
TOLNR1,0,TOLLEVAST Nouvelle Route,,49.589878,-1.599508
TOLNR2,0,TOLLEVAST Nouvelle Route,,49.589724,-1.600115
TOLROC,0,TOLLEVAST Le Rocher,,49.591993,-1.600437
TOLZA2,0,TOLLEVAST ZA,,49.597529,-1.601833
TREGM1,0,DIELETTE Gare Maritime,,49.550994,-1.856894
TREGM2,0,DIELETTE Gare Maritime,,49.551065,-1.856781
VALCH1,0,VALOGNES Place du Chateau,,49.509501,-1.472619
VALCH2,0,VALOGNES Place du Chateau,,49.509430,-1.472443
VALCOL,0,VALOGNES College/Lycee,,49.508044,-1.481005
VALFB1,0,VALOGNES Place Felix Buhot,,49.510590,-1.477207
VALGR1,0,VALOGNES Le Gravier,,49.515908,-1.464547
VALGR2,0,VALOGNES Le Gravier,,49.516022,-1.464911
VALGS1,0,VALOGNES Gare SNCF,,49.505101,-1.479317
VALGS2,0,VALOGNES Gare SNCF,,49.505393,-1.478708
VALHO1,0,VALOGNES Hopital,,49.503422,-1.464169
VAUBG1,0,VAUVILLE Le Bourg,,49.636676,-1.846286
VAUBG2,0,VAUVILLE Le Bourg,,49.636500,-1.846147
VAUPD1,0,VAUVILLE Le Petit Douet,,49.639922,-1.848117
VAUPD2,0,VAUVILLE Le Petit Douet,,49.639974,-1.848176
VAUVQ1,0,VAUVILLE La Vacquerie,,49.630635,-1.816201
VAUVQ2,0,VAUVILLE La Vacquerie,,49.630641,-1.816285
VIDPI1,0,VIDECOSVILLE Piedchou,,49.574246,-1.367507
VIDPI2,0,VIDECOSVILLE Piedchou,,49.573860,-1.368710
VIRMA1,0,VIRANDEVILLE Mairie,,49.568489,-1.726734
VIRMA2,0,VIRANDEVILLE Mairie,,49.568829,-1.726691
VREHL1,0,LE VRETOT Hotel Launay,,49.446358,-1.704692
VREHL2,0,LE VRETOT Hotel Launay,,49.446516,-1.704876